{
"type": "FeatureCollection",
"features": [
{
  "type": "Feature",
  "id": "node/1296156857",
  "properties": {
    "addr:city": "Volta Mantovana",
    "addr:housenumber": "24",
    "addr:postcode": "46049",
    "addr:street": "Piazza XX Settembre",
    "amenity": "bar",
    "name": "Latte & Rhum di Maestrini Claudio e Magri Emanuele snc",
    "opening_hours": "Sa-We 06:00-02:00; Th off",
    "operator": "Maestrini Claudio e Magri Emanuele snc",
    "phone": "+39 0376 812934",
    "smoking": "no",
    "id": "node/1296156857"
  },
  "geometry": {
    "type": "Point",
    "coordinates": [
      10.6606394,
      45.3207284
    ]
  }
},
{
  "type": "Feature",
  "id": "node/1296156861",
  "properties": {
    "addr:city": "Volta Mantovana",
    "addr:housenumber": "2",
    "addr:postcode": "46049",
    "addr:street": "Piazza XX Settembre",
    "amenity": "bar",
    "name": "Caffè Cavriani SnC",
    "phone": "+39 0376838725",
    "id": "node/1296156861"
  },
  "geometry": {
    "type": "Point",
    "coordinates": [
      10.6605426,
      45.320429
    ]
  }
},
{
  "type": "Feature",
  "id": "node/1341791166",
  "properties": {
    "addr:city": "Cereta",
    "addr:country": "IT",
    "addr:housenumber": "38",
    "addr:postcode": "46049",
    "addr:street": "Via Avis",
    "amenity": "cafe",
    "name": "Bar Ferri",
    "operator": "Ferri Giacomo",
    "ref:vatin": "IT00500410204",
    "id": "node/1341791166"
  },
  "geometry": {
    "type": "Point",
    "coordinates": [
      10.6413734,
      45.3043184
    ]
  }
},
{
  "type": "Feature",
  "id": "node/1470659836",
  "properties": {
    "amenity": "bar",
    "name": "Chiosco dei Mulini",
    "opening_hours": "Mar-Oct 08:00-22:00",
    "service:bicycle:rental": "yes",
    "service:bicycle:repair": "yes",
    "website": "www.chioscodeimulini.it",
    "wifi": "yes",
    "id": "node/1470659836"
  },
  "geometry": {
    "type": "Point",
    "coordinates": [
      10.7019165,
      45.3111147
    ]
  }
},
{
  "type": "Feature",
  "id": "node/2412100341",
  "properties": {
    "addr:city": "Volta Mantovana",
    "addr:housenumber": "2",
    "addr:postcode": "46049",
    "addr:street": "Viale Risorgimento",
    "amenity": "bar",
    "name": "L'Officina",
    "opening_hours": "Mo-Su 07:00-22:00",
    "operator": "Cristina Prian",
    "phone": "+39 0376 838180",
    "id": "node/2412100341"
  },
  "geometry": {
    "type": "Point",
    "coordinates": [
      10.6600638,
      45.3229245
    ]
  }
},
{
  "type": "Feature",
  "id": "node/3492066299",
  "properties": {
    "addr:city": "Volta Mantovana",
    "addr:housenumber": "53",
    "addr:postcode": "46049",
    "addr:street": "Viale Risorgimento",
    "amenity": "bar",
    "facebook": "https://www.facebook.com/Bar-Roma-140909356088196/",
    "name": "Bar Roma da Corrado",
    "opening_hours": "Su-Sa 06:30-01:00, PH off",
    "phone": "+39 0376 83781",
    "id": "node/3492066299"
  },
  "geometry": {
    "type": "Point",
    "coordinates": [
      10.6639348,
      45.3240113
    ]
  }
},
{
  "type": "Feature",
  "id": "node/3822865465",
  "properties": {
    "addr:city": "Volta Mantovana",
    "addr:housenumber": "13",
    "addr:postcode": "46049",
    "addr:street": "Piazza Giuseppe Garibaldi",
    "amenity": "bar",
    "name": "Caffè Garibaldi",
    "opening_hours": "Mercoledì chiuso",
    "opening_hours_2": "Th-Tu 07:30-02:00; We off",
    "source": "survey (mapping party maggio 2016)",
    "id": "node/3822865465"
  },
  "geometry": {
    "type": "Point",
    "coordinates": [
      10.6595064,
      45.3225485
    ]
  }
},
{
  "type": "Feature",
  "id": "node/3822895858",
  "properties": {
    "addr:city": "Volta Mantovana",
    "addr:country": "IT",
    "addr:housenumber": "15",
    "addr:postcode": "46049",
    "addr:street": "Piazza 20 Settembre",
    "amenity": "ice_cream",
    "name": "K2",
    "opening_hours": "Mo-Sa 15:00-23:00, Su 11:00-23:00",
    "id": "node/3822895858"
  },
  "geometry": {
    "type": "Point",
    "coordinates": [
      10.660196,
      45.3215332
    ]
  }
},
{
  "type": "Feature",
  "id": "node/3822924181",
  "properties": {
    "addr:city": "Volta Mantovana",
    "addr:housenumber": "19",
    "addr:postcode": "46049",
    "addr:street": "Via San Martino",
    "amenity": "bar",
    "facebook": "https://www.facebook.com/Bar-plaza-caf%C3%A9-549975178491758/",
    "name": "Plaza Café",
    "opening_hours": "Mo-Sa 6:00-14:00, 16:00-24:00",
    "smoking": "no",
    "id": "node/3822924181"
  },
  "geometry": {
    "type": "Point",
    "coordinates": [
      10.659656,
      45.3220371
    ]
  }
},
{
  "type": "Feature",
  "id": "node/4229002040",
  "properties": {
    "addr:city": "Volta Mantovana",
    "addr:housenumber": "45e",
    "addr:postcode": "46049",
    "addr:street": "Via Roma",
    "amenity": "cafe",
    "name": "Grifondoro",
    "outdoor_seating": "yes",
    "id": "node/4229002040"
  },
  "geometry": {
    "type": "Point",
    "coordinates": [
      10.6676175,
      45.320067
    ]
  }
},
{
  "type": "Feature",
  "id": "node/4316950177",
  "properties": {
    "addr:city": "Volta Mantovana",
    "addr:housenumber": "1",
    "addr:postcode": "46049",
    "addr:street": "Via Ivanoe Bonomi",
    "amenity": "cafe",
    "name": "Bar Commercio",
    "phone": "+39 037683239",
    "smoking": "no",
    "id": "node/4316950177"
  },
  "geometry": {
    "type": "Point",
    "coordinates": [
      10.6580375,
      45.321845
    ]
  }
},
{
  "type": "Feature",
  "id": "node/4317729305",
  "properties": {
    "addr:city": "Volta Mantovana",
    "addr:country": "IT",
    "addr:housenumber": "3",
    "addr:postcode": "46049",
    "addr:street": "Piazza 20 Settembre",
    "amenity": "cafe",
    "amenity_1": "ice_cream",
    "name": "Bar Gelateria Piva",
    "opening_hours": "Tu,We 07:00-20:00; Th-Su 07:00-24:00",
    "outdoor_seating": "yes",
    "wheelchair": "yes",
    "id": "node/4317729305"
  },
  "geometry": {
    "type": "Point",
    "coordinates": [
      10.6601252,
      45.3209349
    ]
  }
},
{
  "type": "Feature",
  "id": "node/4317729306",
  "properties": {
    "amenity": "bar",
    "id": "node/4317729306"
  },
  "geometry": {
    "type": "Point",
    "coordinates": [
      10.6573691,
      45.3240009
    ]
  }
},
{
  "type": "Feature",
  "id": "node/4317729307",
  "properties": {
    "amenity": "bar",
    "id": "node/4317729307"
  },
  "geometry": {
    "type": "Point",
    "coordinates": [
      10.6585103,
      45.3260967
    ]
  }
}
]
}
